City_ID,City,Cloudiness,Country,Date,Humidity,Lat,Lng,Max Temp,Wind Speed
0,pevek,0,RU,1523127272,76,69.7,170.27,-6.93,3.94
1,suleja,0,NG,1523127273,57,9.18,7.18,86.58,3.6
2,aksu,90,KZ,1523124000,80,52.04,76.93,39.2,6.71
3,punta arenas,40,CL,1523124000,75,-53.16,-70.91,44.6,23.04
4,rikitea,36,PF,1523127264,100,-23.12,-134.97,75.52,4.83
5,qaqortoq,90,GL,1523123400,86,60.72,-46.03,28.4,10.29
6,hermanus,20,ZA,1523127275,88,-34.42,19.24,53.92,2.04
7,jumla,32,NP,1523127265,82,29.28,82.18,30.25,1.81
8,qaanaaq,0,GL,1523127266,76,77.48,-69.36,-0.81,7.52
9,kupang,0,ID,1523127266,100,-10.16,123.6,77.41,6.29
10,kasulu,12,TZ,1523127266,95,-4.57,30.11,64.45,0.58
11,podgornoye,76,RU,1523127267,98,57.79,82.64,35.02,3.71
12,hobart,75,AU,1523125800,76,-42.88,147.33,55.4,3.36
13,atuona,68,PF,1523127267,100,-9.8,-139.03,80.92,14.45
14,ushuaia,75,AR,1523124000,69,-54.81,-68.31,39.2,18.34
15,esperance,40,TT,1523124000,66,10.24,-61.45,84.2,18.34
16,bluff,0,AU,1523127269,67,-23.58,149.07,70.3,11.1
17,saint-leu,0,RE,1523124000,73,-21.15,55.28,77.0,6.93
18,setubal,88,AR,1523127270,100,-31.5,-60.68,70.39,4.61
19,suntar,48,RU,1523127270,71,62.16,117.65,12.87,2.59
20,shuiji,0,CN,1523127281,70,27.42,118.34,36.19,2.37
21,newport,75,GB,1523125200,100,51.59,-3.0,53.6,9.17
22,toamasina,75,MG,1523124000,94,-18.17,49.38,77.0,4.7
23,bredasdorp,92,ZA,1523124000,72,-34.53,20.04,62.6,4.7
24,kavieng,88,PG,1523127272,100,-2.57,150.8,84.07,3.71
25,senno,24,RU,1523124000,64,57.76,27.95,37.4,2.24
26,gravdal,0,NO,1523125200,75,59.79,5.78,44.6,6.93
27,itororo,32,BR,1523127284,70,-15.12,-40.07,81.37,6.73
28,guaruja,40,BR,1523124000,69,-23.99,-46.26,82.4,6.93
29,saint-augustin,90,FR,1523125800,93,44.83,-0.61,53.6,4.7
30,new norfolk,75,AU,1523125800,76,-42.78,147.06,55.4,3.36
31,provideniya,44,RU,1523127276,100,64.42,-173.23,16.83,6.29
32,castro,76,CL,1523127277,90,-42.48,-73.76,52.12,6.62
33,port augusta,0,AU,1523124000,47,-32.49,137.76,59.0,8.05
34,mataura,44,NZ,1523127288,77,-46.19,168.86,42.94,7.96
35,chiltepec,0,MX,1523127278,41,18.48,-96.9,78.85,2.04
36,jamestown,0,AU,1523127077,61,-33.21,138.6,48.15,3.15
37,hilo,90,US,1523123580,94,19.71,-155.08,73.4,5.82
38,broken hill,0,AU,1523127289,70,-31.97,141.45,55.27,3.38
39,acapulco,5,MX,1523123400,69,16.86,-99.88,80.6,12.75
40,albany,75,US,1523123640,40,42.65,-73.75,37.4,18.34
41,malazgirt,20,TR,1523123400,39,39.15,42.54,50.0,12.75
42,amarillo,90,US,1523124900,47,35.21,-101.83,35.6,10.29
43,lasa,20,CY,1523125800,87,34.92,32.53,64.4,4.7
44,mar del plata,32,AR,1523127137,47,-46.43,-67.52,61.57,16.02
45,cape town,0,ZA,1523124000,72,-33.93,18.42,62.6,9.17
46,antalaha,24,MG,1523127283,93,-14.9,50.28,77.41,8.41
47,ust-tarka,88,RU,1523127283,97,55.56,75.71,32.77,4.61
48,tamandare,64,BR,1523127294,80,-8.28,-70.75,83.35,4.05
49,padang,32,ID,1523127294,100,-0.92,100.36,81.27,4.72
50,tuktoyaktuk,5,CA,1523124000,77,69.44,-133.03,8.6,9.17
51,lokachi,0,UA,1523127295,59,50.74,24.65,46.62,9.19
52,saint george,20,GR,1523123400,67,39.45,22.34,57.2,8.05
53,cruzeiro do sul,75,BR,1523124000,78,-7.63,-72.67,82.4,4.7
54,tocopilla,48,CL,1523127287,100,-22.09,-70.2,67.69,7.4
55,vaini,8,IN,1523127298,84,15.34,74.49,70.12,1.14
56,upernavik,24,GL,1523127288,100,72.79,-56.15,6.12,10.65
57,kodiak,1,US,1523123580,40,39.95,-94.76,35.6,5.84
58,olinda,40,EC,1523124000,58,-2.03,-79.75,86.0,3.36
59,pallasovka,76,RU,1523127141,75,50.04,46.89,50.4,12.21
60,sipoo,0,FI,1523125200,69,60.38,25.27,35.6,8.05
61,laguna,5,MX,1523122860,17,27.52,-110.01,78.8,9.17
62,sambava,24,MG,1523127302,100,-14.27,50.17,80.47,14.9
63,araouane,56,ML,1523127292,8,18.9,-3.53,97.39,2.93
64,totskoye,88,RU,1523127302,93,52.53,52.75,34.57,12.33
65,sawtell,0,AU,1523125800,82,-30.38,153.1,66.2,9.17
66,birur,0,IN,1523127294,96,13.62,75.97,62.92,3.15
67,ribeira grande,75,PT,1523125800,88,38.52,-28.7,62.6,18.34
68,vila franca do campo,40,PT,1523125800,88,37.72,-25.43,62.6,18.34
69,barrow,0,AR,1523127305,68,-38.31,-60.23,65.35,4.94
70,marawi,8,PH,1523127306,97,8.0,124.29,61.93,1.81
71,vao,92,EE,1523127306,68,59.1,26.19,38.88,7.74
72,tartagal,75,AR,1523124000,70,-22.52,-63.8,86.0,11.41
73,raudeberg,92,NO,1523125200,86,61.99,5.14,41.0,8.05
74,dzaoudzi,56,YT,1523124000,94,-12.79,45.27,78.8,4.7
75,talnakh,92,RU,1523127308,78,69.49,88.39,-4.14,6.4
76,miura,20,JP,1523125800,50,35.17,139.64,51.8,9.17
77,alvand,80,IR,1523127299,98,36.19,50.06,42.94,5.73
78,aklavik,5,CA,1523124000,60,68.22,-135.01,12.2,2.24
79,nantucket,40,US,1523126100,38,41.28,-70.1,42.8,8.05
80,gondar,75,PT,1523125800,81,41.82,-8.78,53.6,6.93
81,erenhot,0,CN,1523127300,65,43.65,111.97,20.44,6.17
82,mount gambier,8,AU,1523127311,60,-37.83,140.78,58.69,6.4
83,tiksi,44,RU,1523127301,65,71.64,128.87,-3.96,2.93
84,tasiilaq,40,GL,1523123400,58,65.61,-37.64,24.8,24.16
85,jiwani,0,PK,1523127302,44,25.05,61.74,85.69,11.77
86,neiafu,75,TO,1523124000,100,-18.65,-173.98,75.2,4.7
87,nabire,32,ID,1523127303,98,-3.36,135.5,68.14,1.25
88,sibolga,76,ID,1523127314,100,1.74,98.78,67.69,1.92
89,papetoai,20,PF,1523125800,62,-17.5,-149.87,84.2,6.93
90,mackenzie,1,CA,1523124000,46,55.34,-123.09,28.4,10.29
91,cabra,92,ES,1523125800,87,37.47,-4.43,51.8,4.7
92,omboue,24,GA,1523127305,100,-1.57,9.26,81.91,10.98
93,kapaa,90,US,1523126160,94,22.08,-159.32,73.4,8.05
94,remontnoye,0,RU,1523124000,71,46.56,43.66,50.0,8.95
95,san patricio,0,PY,1523127316,41,-26.98,-56.83,89.65,2.71
96,dalhousie,20,IN,1523127317,65,32.54,75.98,52.2,2.37
97,belyy yar,92,RU,1523124000,93,53.6,91.39,35.6,8.19
98,sri aman,75,MY,1523124000,94,1.24,111.46,75.2,2.26
99,tuatapere,36,NZ,1523127308,100,-46.13,167.69,51.22,14.67
100,kisanga,64,CD,1523127308,78,-11.72,27.4,69.67,4.72
101,ciudad bolivar,68,VE,1523127319,41,8.12,-63.55,92.89,9.75
102,kamyshevatskaya,0,RU,1523127309,75,46.41,37.96,52.2,15.68
103,sao filipe,12,CV,1523127310,89,14.9,-24.5,73.08,19.48
104,severo-kurilsk,92,RU,1523127320,98,50.68,156.12,31.42,25.86
105,bambous virieux,40,MU,1523124000,83,-20.34,57.76,78.8,16.11
106,avarua,90,CK,1523124000,94,-21.21,-159.78,78.8,10.29
107,saskylakh,80,RU,1523127311,77,71.97,114.09,-3.69,7.63
108,nome,90,US,1523124900,93,30.04,-94.42,64.4,13.87
109,saqqez,0,IR,1523127312,76,36.24,46.27,39.79,2.04
110,ostrovnoy,56,RU,1523127323,91,68.05,39.51,28.81,14.45
111,busselton,80,AU,1523127313,100,-33.64,115.35,62.47,7.18
112,santa luzia,40,BR,1523124000,57,-19.77,-43.85,82.4,5.82
113,bria,32,CF,1523127325,63,6.54,21.99,78.31,5.28
114,sabang,92,PH,1523127316,87,13.72,123.58,79.02,15.57
115,toora-khem,80,RU,1523127316,83,52.47,96.11,29.44,2.04
116,san cristobal,75,EC,1523124000,28,-0.39,-78.55,80.6,4.7
117,port macquarie,40,AU,1523124780,100,-31.43,152.91,59.0,3.36
118,kaitangata,20,NZ,1523127328,76,-46.28,169.85,43.38,7.18
119,ancud,88,CL,1523127318,93,-41.87,-73.83,50.95,4.61
120,pamanukan,36,ID,1523127318,100,-6.28,107.82,81.64,7.96
121,carnarvon,0,ZA,1523127319,25,-30.97,22.13,55.45,5.95
122,saint-francois,80,FR,1523125800,51,46.42,3.91,60.8,3.36
123,alcoentre,40,PT,1523125800,76,39.21,-8.96,57.2,6.93
124,kavaratti,0,IN,1523127330,98,10.57,72.64,86.95,8.63
125,dalmatovo,32,RU,1523127331,68,56.26,62.94,22.15,2.59
126,yellowknife,75,CA,1523124000,56,62.45,-114.38,12.2,10.29
127,ilulissat,20,GL,1523123400,73,69.22,-51.1,24.8,4.7
128,marienburg,0,DE,1523125200,45,52.12,9.98,64.4,6.93
129,lakes entrance,0,AU,1523127323,100,-37.88,147.99,53.47,4.83
130,khandyga,0,RU,1523127333,72,62.65,135.58,12.15,2.59
131,saint anthony,90,US,1523125800,87,43.97,-111.68,46.4,8.05
132,trenggalek,36,ID,1523127324,95,-8.05,111.71,69.12,1.92
133,ust-nera,24,RU,1523127325,61,64.57,143.24,1.9,2.71
134,victoria,75,BN,1523125800,83,5.28,115.24,82.4,6.93
135,lorengau,0,PG,1523127327,100,-2.02,147.27,81.37,5.39
136,port alfred,0,ZA,1523127337,91,-33.59,26.89,67.87,17.36
137,lebu,75,ET,1523124000,77,8.96,38.73,60.8,3.15
138,eregli,32,TR,1523127339,53,37.51,34.05,50.4,3.71
139,georgetown,90,GY,1523124000,100,6.8,-58.16,73.4,9.17
140,foshan,0,CN,1523124000,67,23.02,113.11,57.2,8.86
141,raahe,0,FI,1523125200,85,64.68,24.47,32.0,9.17
142,cairns,20,AU,1523125800,78,-16.92,145.77,78.8,10.29
143,north bend,90,US,1523126100,81,43.41,-124.22,53.6,26.4
144,leningradskiy,56,RU,1523127333,86,69.38,178.42,5.22,9.42
145,college,1,US,1523123880,62,64.86,-147.8,26.6,1.7
146,weiden,0,DE,1523125200,51,49.81,7.3,68.0,8.05
147,ixtapa,5,MX,1523123160,42,20.71,-105.21,80.6,9.17
148,pyay,100,MM,1523127334,100,18.82,95.22,70.12,9.19
149,thompson,20,CA,1523124000,43,55.74,-97.86,12.2,9.17
150,porto nacional,20,BR,1523124000,52,-10.7,-48.41,89.6,4.7
151,buchanan,75,LR,1523125800,79,5.88,-10.05,84.2,9.17
152,souillac,92,FR,1523125800,93,45.6,-0.6,53.6,3.36
153,douglas,1,US,1523123760,17,31.34,-109.55,73.4,6.06
154,cidreira,0,BR,1523127348,62,-30.17,-50.22,84.87,0.47
155,khatanga,0,RU,1523127338,40,71.98,102.47,-26.01,3.04
156,longyearbyen,0,NO,1523123400,60,78.22,15.63,8.6,6.93
157,cherskiy,0,RU,1523127339,59,68.75,161.3,2.07,4.5
158,mentakab,32,MY,1523127339,91,3.49,102.35,73.08,2.71
159,edd,12,ER,1523127350,54,13.93,41.69,84.97,5.73
160,sinnar,0,IN,1523127340,80,19.85,74.0,64.18,2.71
161,roros,90,NO,1523125200,74,62.57,11.38,33.8,4.7
162,afua,64,NG,1523127341,96,5.27,7.87,77.41,6.62
163,faya,0,SA,1523124000,77,18.39,42.45,66.2,6.93
164,monrovia,75,LR,1523125800,79,6.33,-10.8,84.2,9.17
165,kruisfontein,32,ZA,1523127342,86,-34.0,24.73,66.25,20.04
166,lensk,20,RU,1523127343,72,60.71,114.91,12.07,2.37
167,sheltozero,0,RU,1523127343,70,61.37,35.37,31.87,18.03
168,puerto leguizamo,36,CO,1523127343,71,-0.19,-74.78,86.95,3.27
169,gamba,64,CN,1523127344,61,28.28,88.52,12.33,2.48
170,casma,36,PE,1523127344,90,-9.47,-78.3,70.66,7.18
171,ust-ilimsk,76,RU,1523127344,83,57.96,102.73,29.44,2.59
172,corinto,36,BR,1523127345,75,-18.36,-44.46,79.39,7.18
173,gat,0,SN,1523124000,31,14.69,-16.54,100.4,9.17
174,umm lajj,0,SA,1523127127,92,25.02,37.27,72.0,4.16
175,kayerkan,88,RU,1523127345,63,69.35,87.76,-3.42,8.97
176,saint-philippe,75,CA,1523124900,55,45.36,-73.48,37.4,24.16
177,loon,36,NL,1523125500,59,53.01,6.61,64.4,5.82
178,phonhong,100,LA,1523127346,100,18.5,102.42,61.2,3.71
179,lawigan,88,PH,1523127347,100,10.49,122.04,80.47,17.02
180,abu samrah,8,SY,1523127347,34,35.3,37.18,66.6,8.3
181,sept-iles,75,CA,1523124000,50,50.2,-66.38,28.4,11.41
182,comodoro rivadavia,75,AR,1523124000,42,-45.87,-67.48,66.2,12.75
183,bourail,0,NC,1523127348,94,-21.57,165.5,68.95,5.28
184,pervomayskoye,36,RU,1523127348,96,57.07,86.23,30.33,5.17
185,hithadhoo,8,MV,1523127359,100,-0.6,73.08,85.6,4.94
186,touros,76,BR,1523127349,89,-5.2,-35.46,81.91,6.96
187,hofn,24,IS,1523127350,100,64.25,-15.21,36.63,5.95
188,henderson,1,US,1523125620,32,36.04,-114.98,84.2,17.22
189,cauquenes,32,CL,1523127350,80,-35.97,-72.32,56.89,5.39
190,lata,12,IN,1523127361,100,30.78,78.62,42.94,1.7
191,romanovka,0,RU,1523127351,88,51.74,42.76,31.95,9.64
192,bontang,32,ID,1523127361,100,0.12,117.47,79.57,5.06
193,heiligenhafen,0,DE,1523125200,38,54.37,10.98,60.8,3.36
194,torbay,90,CA,1523124000,93,47.66,-52.73,42.8,21.92
195,norman wells,5,CA,1523124000,60,65.28,-126.83,8.6,4.7
196,northam,40,GB,1523125200,87,51.04,-4.21,50.0,4.7
197,emet,36,TR,1523127353,93,39.34,29.26,48.97,2.48
198,lompoc,90,US,1523126100,100,34.64,-120.46,64.4,14.99
199,taksimo,12,RU,1523127354,79,56.36,114.84,6.22,1.81
200,yenagoa,8,NG,1523127364,70,4.92,6.26,82.81,7.74
201,yabassi,40,CM,1523124000,83,4.46,9.97,82.4,1.12
202,noumea,0,NC,1523125800,88,-22.28,166.46,68.0,2.24
203,shimoda,0,JP,1523127356,100,34.7,138.93,50.13,28.66
204,tura,48,IN,1523127366,95,25.52,90.21,68.77,1.25
205,lodhikheda,75,IN,1523125800,25,21.58,78.83,89.6,4.7
206,bethel,1,US,1523123580,72,60.79,-161.76,10.4,11.41
207,namibe,0,AO,1523127359,100,-15.19,12.15,79.12,5.73
208,kalmunai,68,LK,1523127369,97,7.42,81.82,76.87,3.15
209,jardim,8,BR,1523127370,35,-21.48,-56.15,93.33,4.27
210,vanavara,88,RU,1523127371,92,60.35,102.28,26.1,5.84
211,scarborough,92,GB,1523123400,81,54.28,-0.41,51.8,1.12
212,tsaratanana,36,MG,1523127362,88,-16.8,47.65,72.55,10.31
213,luderitz,0,NA,1523127372,69,-26.65,15.16,63.64,14.9
214,ballina,75,IE,1523124000,93,54.11,-9.15,48.2,4.7
215,baykit,68,RU,1523127373,77,61.68,96.39,16.57,4.72
216,port elizabeth,90,US,1523123760,30,39.31,-74.98,44.6,10.29
217,sao felix do xingu,24,BR,1523127364,68,-6.64,-51.99,85.77,2.82
218,puerto ayora,20,EC,1523124000,65,-0.74,-90.35,82.4,14.99
219,jaisalmer,0,IN,1523127375,55,26.91,70.91,72.64,3.04
220,chuy,20,UY,1523127365,70,-33.69,-53.46,81.72,9.86
221,mahebourg,40,MU,1523124000,83,-20.41,57.7,78.8,16.11
222,petropavlovsk-kamchatskiy,90,RU,1523124000,86,53.05,158.65,30.2,13.42
223,ponta do sol,48,BR,1523127376,81,-20.63,-46.0,76.5,9.98
224,derbent,0,RU,1523127367,90,42.06,48.29,41.67,2.93
225,katherine,76,AU,1523125800,82,-14.47,132.26,68.0,4.7
226,clyde river,75,CA,1523124000,70,70.47,-68.59,-2.21,13.87
227,cururupu,92,BR,1523127378,100,-1.82,-44.87,74.97,4.61
228,dingle,36,PH,1523127379,95,11.0,122.67,74.52,11.43
229,cayenne,0,GF,1523125800,69,4.94,-52.33,82.4,10.29
230,kamenka,12,RU,1523127380,93,53.19,44.05,33.94,13.11
231,vytegra,0,RU,1523127370,71,61.01,36.45,31.24,19.26
232,yelatma,68,RU,1523127370,84,54.97,41.75,36.1,16.91
233,labe,24,NG,1523127381,50,7.7,8.47,91.35,5.84
234,vestmannaeyjar,0,IS,1523124000,69,63.44,-20.27,37.4,5.82
235,iquique,0,CL,1523124000,64,-20.22,-70.14,71.6,19.46
236,puro,56,PH,1523127372,86,13.13,123.76,77.14,12.55
237,saiha,20,IN,1523127373,82,22.49,92.98,66.52,2.26
238,grafton,100,AU,1523127373,93,-29.69,152.93,66.6,2.59
239,port blair,64,IN,1523127384,100,11.67,92.75,83.25,10.42
240,bastia,0,IT,1523125200,63,44.6,8.98,60.8,3.36
241,erzin,0,TR,1523125200,63,36.95,36.2,66.2,8.05
242,narsaq,90,GL,1523123400,86,60.91,-46.05,28.4,10.29
243,lodwar,64,KE,1523127375,95,3.12,35.6,75.25,2.04
244,jalalabad,75,AF,1523123700,39,34.43,70.46,80.6,3.36
245,butaritari,100,KI,1523127376,100,3.07,172.79,82.72,9.19
246,mount darwin,8,ZW,1523127386,46,-16.77,31.58,78.22,10.42
247,sidney,1,US,1523126100,37,47.72,-104.16,33.8,11.41
248,karratha,0,AU,1523127377,73,-20.74,116.85,77.95,6.85
249,chipata,8,ZM,1523127378,75,-13.64,32.65,70.39,7.29
250,geraldton,90,CA,1523124000,52,49.72,-86.95,15.8,11.41
251,bartica,90,GY,1523124000,100,6.41,-58.62,73.4,9.17
252,yangjiang,20,CN,1523127379,100,21.85,111.96,65.8,18.37
253,nuuk,75,GL,1523123400,35,64.17,-51.74,42.8,17.22
254,worland,1,US,1523123580,52,44.02,-107.96,42.8,4.7
255,hambantota,8,LK,1523127379,100,6.12,81.12,78.85,3.38
256,rio gallegos,40,AR,1523124000,46,-51.62,-69.22,50.0,23.04
257,bar harbor,40,US,1523123760,38,44.39,-68.2,42.8,10.29
258,chokurdakh,0,RU,1523127391,64,70.62,147.9,-3.42,5.95
259,pisco,0,PE,1523124000,73,-13.71,-76.2,75.2,9.17
260,griffith,0,AU,1523127392,66,-34.29,146.06,49.87,2.82
261,nikolskoye,0,RU,1523124000,59,59.7,30.79,35.6,4.47
262,kolokani,100,ML,1523127393,25,13.58,-8.03,98.56,2.93
263,santa maria da vitoria,12,BR,1523127393,86,-13.39,-44.19,81.37,5.5
264,sitka,44,US,1523127394,77,37.17,-99.65,29.7,4.83
265,singaraja,12,ID,1523127384,100,-8.11,115.08,69.94,2.04
266,phangnga,20,TH,1523125800,78,8.45,98.53,78.8,2.24
267,sarakhs,44,TM,1523124000,48,36.54,61.16,60.8,4.7
268,bereznik,100,RU,1523127385,85,62.86,42.71,32.67,16.69
269,dikson,88,RU,1523127396,80,73.51,80.55,-1.08,24.29
270,champerico,40,MX,1523123280,43,16.38,-93.6,89.6,9.17
271,klyuchi,80,RU,1523127397,89,52.25,79.17,41.4,6.4
272,haines junction,44,CA,1523127387,88,60.75,-137.51,20.17,2.71
273,klaksvik,0,FO,1523125200,59,62.23,-6.59,37.4,8.05
274,rocha,68,UY,1523127399,64,-34.48,-54.34,76.6,9.64
275,puerto del rosario,20,ES,1523125800,48,28.5,-13.86,66.2,19.46
276,bagdarin,0,RU,1523127390,66,54.44,113.59,5.05,2.48
277,bilma,0,NE,1523127390,14,18.69,12.92,80.37,6.62
278,los llanos de aridane,20,ES,1523125800,63,28.66,-17.92,64.4,20.8
279,brownwood,90,US,1523126100,59,31.71,-98.99,35.6,16.11
280,east london,0,ZA,1523124000,72,-33.02,27.91,64.4,10.29
281,hailey,90,US,1523123220,100,43.52,-114.32,42.8,9.17
282,porbandar,0,IN,1523127403,89,21.64,69.61,78.04,8.86
283,mayahi,0,NE,1523127393,21,13.95,7.67,90.1,5.28
284,la ronge,5,CA,1523124000,43,55.1,-105.3,12.2,5.82
285,hibbing,1,US,1523126100,32,47.43,-92.94,26.6,13.87
286,secunda,0,ZA,1523127393,62,-26.52,29.2,55.9,3.15
287,charters towers,80,AU,1523127394,92,-20.07,146.27,70.12,6.85
288,katsuyama,75,JP,1523124000,80,36.06,136.5,41.0,12.75
289,pangnirtung,20,CA,1523124000,61,66.15,-65.72,14.0,8.05
290,fortuna,40,ES,1523125800,72,38.18,-1.13,62.6,9.17
291,gallup,1,US,1523123580,28,35.53,-108.74,71.6,18.34
292,broome,0,GB,1523125200,67,52.47,1.45,60.8,14.99
293,coquimbo,0,CL,1523124000,63,-29.95,-71.34,66.2,10.29
294,manicore,48,BR,1523127396,69,-5.81,-61.3,87.22,2.93
295,pauini,68,BR,1523127407,72,-7.71,-67.0,86.85,4.38
296,taua,32,SL,1523127397,64,8.79,-12.72,85.69,13.44
297,coihaique,90,CL,1523124000,87,-45.58,-72.07,44.6,4.7
298,porto novo,40,BR,1523124000,54,-23.68,-45.44,82.4,5.82
299,mokhsogollokh,0,RU,1523127409,81,61.4,128.95,14.77,6.06
300,shelburne,90,CA,1523124780,50,44.08,-80.2,32.0,4.7
301,hirara,92,JP,1523127399,100,24.8,125.28,64.81,19.15
302,qeshm,8,IR,1523125800,65,26.96,56.27,77.0,4.7
303,iqaluit,90,CA,1523124000,62,63.75,-68.52,23.0,16.11
304,quatre cocos,40,MU,1523124000,83,-20.21,57.76,78.8,16.11
305,hay river,75,CA,1523124000,30,60.82,-115.79,26.6,6.93
306,port hardy,75,CA,1523124000,81,50.7,-127.42,50.0,19.46
307,tilichiki,80,RU,1523127412,78,60.47,166.1,18.63,2.71
308,basoko,0,CD,1523127412,69,1.23,23.61,79.66,5.06
309,tessalit,24,ML,1523127403,9,20.2,1.01,89.73,2.82
310,patur,64,IN,1523127403,51,20.46,76.94,79.57,3.6
311,espinosa,32,BR,1523127414,56,-14.92,-42.81,82.54,7.4
312,cockburn town,48,TC,1523127124,100,21.46,-71.14,77.32,7.18
313,komsomolskiy,0,RU,1523127404,84,67.55,63.78,20.62,14.9
314,vila velha,40,BR,1523124000,70,-3.71,-38.6,84.2,8.05
315,kamogawa,20,JP,1523125800,50,35.13,140.08,51.8,9.17
316,hamilton,90,BM,1523125740,88,32.3,-64.78,71.6,13.87
317,nemuro,8,JP,1523127406,100,43.32,145.57,32.58,18.25
318,shingu,0,JP,1523127417,100,33.72,135.99,48.6,21.05
319,srednekolymsk,0,RU,1523127407,87,67.46,153.71,8.56,4.16
320,kerema,92,PG,1523127417,96,-7.96,145.78,73.35,2.04
321,zhigansk,0,RU,1523127408,76,66.77,123.37,9.72,7.52
322,brazzaville,20,CD,1523124000,62,-4.27,15.27,86.0,3.36
323,salalah,20,OM,1523123400,78,17.01,54.1,80.6,3.36
324,jalu,0,LY,1523127409,29,29.03,21.55,65.89,5.61
325,ambunti,56,PG,1523127410,100,-4.22,142.82,73.98,1.92
326,jacmel,44,HT,1523127421,100,18.24,-72.54,78.67,8.63
327,riachao,88,BR,1523127411,96,-7.36,-46.62,76.06,6.17
328,lubao,75,PH,1523124000,78,14.94,120.6,80.6,2.24
329,sorland,0,NO,1523127259,100,67.67,12.69,37.17,13.89
330,isangel,44,VU,1523127412,100,-19.55,169.27,79.47,25.41
331,deder,68,ET,1523127423,94,9.31,41.44,63.37,3.15
332,la rochelle,92,FR,1523125800,93,46.16,-1.15,53.6,2.24
333,vangaindrano,92,MG,1523127424,100,-23.35,47.6,68.05,2.82
334,firozpur,8,IN,1523123700,39,30.96,74.61,84.2,4.7
335,port moresby,20,PG,1523124000,100,-9.47,147.16,73.4,3.36
336,borovichi,8,RU,1523127416,62,58.39,33.91,32.85,10.98
337,nioro,0,GM,1523127416,23,13.79,-15.05,101.07,4.5
338,tsumeb,44,NA,1523127417,83,-19.25,17.72,67.77,6.06
339,waingapu,0,ID,1523127417,97,-9.65,120.26,70.83,3.15
340,kondopoga,8,RU,1523124000,47,62.21,34.27,37.4,8.95
341,palmer,0,AU,1523125800,48,-34.85,139.16,62.6,9.17
342,ayan,32,TR,1523127419,54,40.67,33.6,51.04,3.38
343,celestun,0,MX,1523127429,84,20.87,-90.4,83.35,9.86
344,guerrero negro,0,MX,1523127430,71,27.97,-114.04,66.6,5.5
345,lagoa,40,PT,1523125800,76,37.14,-8.45,57.2,14.99
346,nanortalik,32,GL,1523127431,95,60.14,-45.24,29.44,11.54
347,chara,20,GR,1523123400,67,39.42,22.43,57.2,8.05
348,salyan,0,AZ,1523127422,96,39.59,48.98,47.97,5.06
349,fort nelson,5,CA,1523124000,34,58.81,-122.69,21.2,4.38
350,camopi,100,GF,1523127422,90,3.17,-52.33,77.58,2.71
351,lavrentiya,8,RU,1523127423,100,65.58,-170.99,11.62,7.63
352,honningsvag,88,NO,1523127423,99,70.98,25.97,30.25,7.18
353,hasaki,40,JP,1523124000,93,35.73,140.83,42.8,2.24
354,sedhiou,0,SN,1523124000,29,12.71,-15.56,102.2,9.17
355,santa maria,20,BR,1523124000,48,-29.69,-53.81,87.8,4.7
356,stantsionno-oyashinskiy,12,RU,1523127436,88,55.47,83.82,25.75,3.94
357,neyshabur,76,IR,1523127436,57,36.21,58.79,48.97,14.23
358,arraial do cabo,40,BR,1523124000,69,-22.97,-42.02,82.4,16.11
359,auki,0,NG,1523127437,18,12.18,6.51,88.2,6.73
360,rock sound,12,BS,1523127437,100,24.9,-76.2,77.95,9.75
361,kortkeros,90,RU,1523124000,100,61.81,51.56,33.8,4.47
362,aipe,40,CO,1523124000,52,3.22,-75.24,87.8,9.17
363,sokolo,0,ML,1523127439,15,14.74,-6.12,100.62,5.61
364,djenne,0,ML,1523127429,19,13.91,-4.55,99.45,4.83
365,bundaberg,68,AU,1523127440,97,-24.87,152.35,76.5,19.71
366,oranjestad,44,AW,1523127440,95,12.52,-70.03,80.02,14.67
367,biak,0,ID,1523127441,100,-0.91,122.88,74.7,3.04
368,sheregesh,92,RU,1523127432,99,52.93,87.98,35.1,2.37
369,lyuban,0,BY,1523127442,74,52.8,28.0,43.2,2.93
370,rantepao,20,ID,1523127432,100,-2.97,119.9,64.62,1.81
371,nalut,88,LY,1523127443,17,31.86,10.98,81.45,10.2
372,lahij,24,YE,1523127444,73,13.06,44.88,78.4,4.27
373,katangli,88,RU,1523127434,90,51.71,143.23,23.58,6.73
374,izhma,64,RU,1523127434,69,65.01,53.91,38.25,9.53
375,mount isa,56,AU,1523125800,64,-20.73,139.49,69.8,3.36
376,tres arroyos,0,AR,1523127445,68,-38.38,-60.28,65.35,4.94
377,sur,0,OM,1523127435,76,22.57,59.53,83.62,4.94
378,kyabe,8,TD,1523127436,42,9.45,18.94,88.47,7.96
379,naifaru,0,MV,1523127436,100,5.44,73.37,85.23,4.16
380,petrolina,75,BR,1523124000,62,-9.38,-40.5,84.2,6.93
381,penzance,0,GB,1523125200,81,50.12,-5.53,50.0,5.82
382,palafrugell,75,ES,1523125800,67,41.92,3.16,57.2,6.93
383,kurumkan,20,RU,1523127448,56,54.33,110.32,3.33,1.36
384,fushan,0,CN,1523124000,50,23.86,116.89,57.2,2.04
385,mapua,92,NZ,1523127439,98,-41.25,173.1,47.8,0.69
386,caravelas,20,BR,1523127450,100,-17.73,-39.27,78.22,6.96
387,sinnamary,92,GF,1523127440,93,5.38,-52.96,81.0,9.75
388,minot,1,US,1523123760,53,48.23,-101.3,21.2,4.61
389,marzuq,12,YE,1523127451,74,14.4,46.47,65.44,3.6
390,anadyr,90,RU,1523124000,77,64.73,177.51,6.8,4.47
391,safford,1,US,1523123460,18,32.83,-109.71,80.6,11.41
392,mabaruma,80,GY,1523127442,69,8.2,-59.78,84.97,8.3
393,nefteyugansk,0,RU,1523124000,73,61.09,72.61,26.6,8.95
394,baruun-urt,8,MN,1523127442,70,46.68,113.28,17.29,2.93
395,goundam,20,ML,1523127443,15,16.42,-3.66,97.83,3.83
396,gedo,56,ET,1523127443,80,9.01,37.45,63.45,2.15
397,ust-kuyga,64,RU,1523127453,81,70.0,135.55,5.95,2.93
398,okato,92,NZ,1523127454,100,-39.19,173.88,58.87,5.39
399,curup,68,ID,1523127444,97,-3.47,102.53,69.85,2.04
400,fjerritslev,88,DK,1523127445,70,57.08,9.27,48.07,8.19
401,te anau,68,NZ,1523127445,86,-45.41,167.72,43.12,7.29
402,lavaltrie,75,CA,1523124720,55,45.88,-73.28,37.4,24.16
403,taungdwingyi,92,MM,1523127446,54,20.0,95.55,82.45,12.44
404,westport,75,IE,1523124000,93,53.8,-9.52,48.2,4.7
405,kenai,1,US,1523123760,59,60.55,-151.26,33.8,9.17
406,batagay,32,RU,1523127447,55,67.65,134.64,3.07,2.71
407,miri,64,NG,1523127458,25,10.31,9.75,89.65,5.61
408,sidi ali,92,DZ,1523127448,76,36.1,0.42,57.25,16.8
409,tchibanga,48,GA,1523127448,78,-2.92,11.0,78.67,4.16
410,ahome,5,MX,1523122800,39,25.92,-109.18,78.8,10.31
411,port-gentil,20,GA,1523124000,79,-0.72,8.78,84.2,6.93
412,opuwo,44,NA,1523127460,73,-18.06,13.84,71.56,2.37
413,laem sing,0,TH,1523127450,90,12.48,102.07,72.37,17.36
414,kidal,0,ML,1523127451,11,18.44,1.41,91.35,2.71
415,gazanjyk,36,TM,1523127451,54,39.24,55.52,55.62,7.63
416,rockland,1,US,1523127060,33,42.13,-70.92,48.2,9.17
417,uspenka,0,UA,1523127452,52,48.39,39.16,54.45,11.88
418,vrangel,12,RU,1523127452,99,42.73,133.08,33.75,11.65
419,makakilo city,90,US,1523126220,94,21.35,-158.09,75.2,7.96
420,katsuura,0,JP,1523127453,79,33.93,134.5,42.94,14.23
421,pacific grove,20,US,1523126100,77,36.62,-121.92,64.4,14.99
422,uige,48,AO,1523127454,46,-7.61,15.06,78.85,3.49
423,alta floresta,76,BR,1523127454,83,-9.87,-56.08,81.64,2.71
424,marshalltown,1,US,1523127300,40,42.04,-92.91,35.6,13.87
425,dori,0,BF,1523127465,20,14.03,-0.03,96.85,4.5
426,callaway,1,US,1523126100,62,46.98,-95.91,24.8,8.05
427,palia kalan,12,IN,1523127456,87,28.45,80.58,69.12,3.27
428,adrar,40,DZ,1523124000,14,27.87,-0.29,93.2,21.92
429,fare,0,PF,1523127467,100,-16.7,-151.02,81.64,7.52
430,sao paulo de olivenca,64,BR,1523127457,77,-3.38,-68.87,84.97,3.6
431,martapura,32,ID,1523127457,100,-3.41,114.85,77.14,2.59
432,muros,40,ES,1523125800,76,42.77,-9.06,51.8,6.93
433,yeppoon,90,AU,1523125800,78,-23.13,150.74,71.6,8.05
434,bridlington,90,GB,1523125200,76,54.08,-0.19,57.2,5.82
435,aldine,90,US,1523127300,81,29.93,-95.38,53.6,12.75
436,wajima,92,JP,1523127461,100,37.4,136.9,41.4,12.1
437,sechura,20,PE,1523127461,75,-5.56,-80.82,78.48,6.96
438,moen,80,NO,1523125200,58,69.13,18.61,30.2,6.93
439,tiznit,0,MA,1523127472,78,29.7,-9.73,60.22,14.79
440,yatou,40,CM,1523124000,83,3.63,9.81,82.4,1.12
441,portland,90,US,1523126340,76,45.52,-122.67,60.8,5.82
442,morondava,80,MG,1523127463,97,-20.3,44.28,79.39,1.03
443,dickinson,1,US,1523123760,42,46.88,-102.79,30.2,14.99
444,bubaque,0,GW,1523124000,74,11.28,-15.83,80.6,11.41
445,takoradi,8,GH,1523127464,94,4.89,-1.75,83.17,9.75
446,alofi,100,NU,1523124000,100,-19.06,-169.92,75.2,3.36
447,vershino-darasunskiy,0,RU,1523127465,64,52.35,115.52,15.4,3.71
448,saldanha,48,PT,1523127475,78,41.42,-6.55,49.15,4.5
449,evensk,0,RU,1523127466,100,61.92,159.24,12.79,15.23
450,roma,0,IT,1523125200,54,41.89,12.48,60.8,1.12
451,puerto ayacucho,40,CO,1523124000,55,5.66,-67.63,89.6,4.7
452,san andres,32,PH,1523127467,98,13.32,122.68,80.65,21.72
453,tommot,24,RU,1523127477,71,58.97,126.27,7.57,2.37
454,eureka,1,US,1523126100,67,40.8,-124.16,59.0,11.41
455,pochutla,5,MX,1523123100,69,15.74,-96.47,82.4,11.41
456,sauteurs,75,GD,1523124000,83,12.22,-61.63,80.6,18.34
457,taltal,0,CL,1523127479,75,-25.41,-70.49,67.5,3.6
458,muroto,0,JP,1523127470,100,33.37,134.14,43.3,11.43
459,balikpapan,20,ID,1523127470,100,-1.24,116.86,79.83,2.04
460,rio bananal,68,BR,1523127470,79,-19.26,-40.34,80.02,8.52
461,airai,0,TL,1523127471,78,-8.93,125.41,62.2,1.7
462,moerai,20,PF,1523127481,100,-22.43,-151.33,79.47,9.75
463,jian,32,IN,1523127482,94,25.65,87.89,68.32,4.27
464,margate,75,AU,1523125800,76,-43.03,147.26,55.4,3.36
465,brae,76,GB,1523125200,93,60.4,-1.35,44.6,8.05
466,road town,20,VG,1523124000,62,18.42,-64.62,84.2,9.17
467,zhucheng,0,CN,1523124000,57,30.85,114.8,51.8,2.24
468,itarema,48,BR,1523127474,98,-2.92,-39.92,82.0,6.73
469,barra do corda,80,BR,1523127475,97,-5.5,-45.25,77.68,7.18
470,tateyama,88,JP,1523127475,100,36.66,137.31,29.8,2.15
471,sindou,0,BF,1523127475,33,10.66,-5.16,93.79,3.6
472,camabatela,36,AO,1523127476,56,-8.19,15.37,73.62,4.16
473,luanda,75,AO,1523124000,78,-8.83,13.24,82.4,9.17
474,ambulu,8,ID,1523127476,100,-8.35,113.61,76.87,3.15
475,fort pierce,90,US,1523126100,65,27.45,-80.33,89.6,8.05
476,san francisco,75,US,1523126100,68,37.78,-122.42,64.4,4.7
477,cumpas,24,MX,1523127489,16,30.0,-109.78,79.75,2.82
478,yanam,0,IN,1523127479,88,16.73,82.22,77.32,4.72
479,henties bay,0,NA,1523127479,86,-22.12,14.28,66.97,7.85
480,flin flon,20,CA,1523124000,43,54.77,-101.88,15.8,2.24
481,petropavlivka,0,UA,1523127490,66,48.46,36.42,50.85,11.65
482,naze,75,NG,1523124000,88,5.43,7.07,75.2,2.24
483,minas de barroteran,0,MX,1523127481,46,27.63,-101.28,72.45,4.94
484,jhudo,0,PK,1523127482,49,24.96,69.3,80.92,7.63
485,aitape,0,PG,1523127482,100,-3.15,142.36,78.57,3.15
486,buluang,90,PH,1523124000,83,10.47,123.98,78.8,8.05
487,sault sainte marie,90,CA,1523126760,79,46.49,-84.36,28.4,13.87
488,carroll,0,AU,1523125800,82,-30.99,150.44,57.2,8.05
489,solnechnyy,36,RU,1523127484,98,50.72,136.64,18.0,4.38
490,vardo,90,US,1523126100,44,39.62,-77.74,41.0,14.99
491,hariana,48,IN,1523127485,55,31.64,75.84,72.64,7.74
492,lahaina,20,US,1523125800,94,20.87,-156.68,75.2,16.11
493,whitehorse,75,CA,1523124000,79,60.72,-135.06,32.0,6.93
494,manila,90,PH,1523124000,83,14.59,120.98,80.6,8.05
495,bandarbeyla,0,SO,1523127487,100,9.49,50.81,82.27,5.17
496,high level,5,CA,1523124000,37,58.52,-117.13,19.4,9.17
497,constitucion,5,MX,1523123040,8,23.99,-104.67,73.4,4.7
498,havoysund,88,NO,1523125200,100,71.0,24.66,32.0,11.41
499,setermoen,80,NO,1523125200,58,68.86,18.35,28.4,6.93
500,bilibino,0,RU,1523127499,75,68.06,166.44,-4.05,2.37
501,mana,0,RS,1523125800,71,43.52,20.24,55.4,6.93
502,nang rong,24,TH,1523124000,82,14.64,102.79,64.4,5.82
503,derzhavinsk,80,KZ,1523127490,91,51.1,66.31,32.05,9.08
504,badvel,8,IN,1523127491,62,14.74,79.07,76.5,4.16
505,avera,75,US,1523126100,88,33.19,-82.53,69.8,6.93
506,santa cruz cabralia,40,BR,1523124000,66,-16.28,-39.02,84.2,10.29
507,baillif,80,GP,1523125800,62,16.02,-61.75,84.2,14.99
508,lakatoro,92,VU,1523127503,100,-16.11,167.42,77.05,5.28
509,xihua,0,CN,1523127503,52,33.79,114.53,48.6,15.12
510,stara moravica,0,RS,1523125800,81,45.87,19.47,50.0,8.05
511,rovaniemi,0,FI,1523125200,73,66.5,25.72,26.6,8.05
512,puerto rondon,24,CO,1523127505,94,6.28,-71.1,82.54,10.87
513,papara,40,BR,1523124000,70,-3.98,-38.73,84.2,8.05
514,kurilsk,64,RU,1523127495,99,45.23,147.88,29.35,13.78
515,inuvik,5,CA,1523124000,56,68.36,-133.71,12.2,4.7
516,rudsar,75,IR,1523124000,87,37.14,50.29,55.4,2.26
517,ucluelet,90,CA,1523124000,93,48.94,-125.55,48.2,20.8
518,sola,75,NO,1523125200,53,58.89,5.65,50.0,6.93
519,cuenca,92,ES,1523127497,100,40.07,-2.13,42.04,7.74
520,waterloo,90,CA,1523124780,63,43.47,-80.52,30.2,14.99
521,muromtsevo,88,RU,1523127499,99,56.37,75.24,31.77,3.27
522,minab,12,IR,1523125800,65,27.15,57.07,77.0,4.7
523,esso,76,RU,1523127499,97,55.93,158.7,18.82,2.48
524,chatellerault,0,FR,1523125800,93,46.8,0.53,53.6,6.93
525,condado,75,BR,1523124000,58,-7.59,-35.1,86.0,9.17
526,faanui,88,PF,1523127500,100,-16.48,-151.75,81.64,8.08
527,indian head,0,CA,1523127501,99,50.53,-103.67,12.07,4.61
528,galesong,20,ID,1523125800,88,-5.32,119.37,77.0,3.36
529,ouidah,40,BJ,1523124000,79,6.37,2.09,84.2,5.82
530,otradnyy,24,RU,1523127513,94,53.38,51.35,33.57,12.66
531,nekhayevskiy,0,RU,1523127514,76,50.41,41.76,38.52,8.86
532,tigil,88,RU,1523127504,87,57.8,158.67,24.22,3.27
533,cagliliog,80,PH,1523127504,74,13.9,123.29,79.12,17.13
534,xuddur,12,SO,1523127515,95,4.12,43.89,69.4,2.93
535,llangefni,76,GB,1523123400,76,53.26,-4.31,50.0,3.36
536,grindavik,75,IS,1523125800,74,63.84,-22.43,39.2,8.05
537,umea,0,SE,1523125200,80,63.83,20.26,35.6,5.82
538,waipawa,48,NZ,1523127506,85,-39.94,176.59,38.52,2.59
539,rakai,12,UG,1523127507,94,-0.71,31.4,64.27,2.71
540,ahipara,0,NZ,1523127507,100,-35.17,173.16,57.79,6.4
541,birjand,90,IR,1523124000,71,32.86,59.22,57.2,9.17
542,kloulklubed,75,PW,1523123640,88,7.04,134.26,80.6,9.08
543,krasnoarmeysk,0,RU,1523124000,59,56.12,38.15,37.4,6.71
544,codrington,80,AU,1523127509,97,-28.95,153.24,64.27,2.59
545,nortelandia,24,BR,1523127509,82,-14.45,-56.8,87.57,3.94
546,lere,100,TD,1523127519,45,9.66,14.23,94.15,2.71
547,tomatlan,0,MX,1523127510,51,19.93,-105.25,84.97,3.94
548,namatanai,76,PG,1523127510,100,-3.66,152.44,82.72,1.25
549,muli,0,IN,1523127510,41,22.62,71.45,81.19,10.31
550,hukuntsi,76,BW,1523127511,40,-23.98,21.76,76.15,2.93
551,grand gaube,40,MU,1523124000,83,-20.01,57.66,78.8,16.11
552,seoul,0,KR,1523125800,38,37.57,126.98,39.2,10.29
553,mitsamiouli,40,KM,1523124000,83,-11.38,43.28,80.6,5.82
554,port lincoln,0,AU,1523127512,74,-34.72,135.86,67.5,13.78
555,rio grande,0,BR,1523124000,45,-32.03,-52.1,84.2,5.82
556,kabo,44,CF,1523127513,84,7.69,18.62,79.93,3.71
557,lagos,40,NG,1523124000,83,6.46,3.39,84.2,5.82
558,nogliki,88,RU,1523127514,90,51.8,143.14,23.58,6.73
559,mehamn,80,NO,1523127514,88,71.03,27.85,27.45,5.28
560,onega,0,RU,1523127514,68,63.91,38.09,29.52,13.67
561,marovoay,40,MG,1523124000,83,-16.11,46.64,82.4,6.93
562,kem,12,UG,1523127525,93,2.68,33.77,66.97,3.27
563,khovu-aksy,64,RU,1523127515,83,51.13,93.72,26.1,2.59
